{"type":"FeatureCollection","features":[{"type":"Feature","properties":{"NAME":"Old North Apartments","ADDRESS":"1300 Warren","OWNER":"Cool People LLC","CONTACT":"Joe","TEL":"555-555-5555","RENT":"$750", "STATUS":"vacant"},"geometry":{"type":"Point","coordinates":[-90.19620895385742,38.65019286678358]}},{"type":"Feature","properties":{"NAME":"Near South Apartments","ADDRESS":"4000 Sidney","OWNER":"Live Here Now","CONTACT":"Karen","TEL":"555-555-5555","RENT":"$900","STATUS":"vacant"},"geometry":{"type":"Point","coordinates":[-90.23054122924805,38.60533475721253]}},{"type":"Feature","properties":{"NAME":"Homes at Union","ADDRESS":"4500 Martin Luther King","OWNER":"Union MLK Apartments","CONTACT":"Malik","TEL":"555-555-5555","RENT":"$700","STATUS":"vacant"},"geometry":{"type":"Point","coordinates":[-90.26779174804688,38.666613703116376]}},{"type":"Feature","properties":{"NAME":"City of Lions Homes","ADDRESS":"6600 Delmar","OWNER":"County Redevelopment LLC","CONTACT":"Rich","TEL":"555-555-5555","RENT":"$950","STATUS":"vacant"},"geometry":{"type":"Point","coordinates":[-90.32581329345703,38.656560576727024]}},{"type":"Feature","properties":{"NAME":"Morgan Ford Apartments","ADDRESS":"4300 Juniata","OWNER":"MoFoHo Inc","CONTACT":"Annie","TEL":"555-555-5555","RENT":"$525","STATUS":"vacant"},"geometry":{"type":"Point","coordinates":[-90.26092529296875,38.60238346454494]}},{"type":"Feature","properties":{"NAME":"Whittier Manor","ADDRESS":"3800 Garfield","OWNER":"ReinveSTLouis","CONTACT":"Cheryl","TEL":"555-555-5555","RENT":"$525","STATUS":"vacant"},"geometry":{"type":"Point","coordinates":[-90.23689270019531,38.656258961132174]}}]}
